[
  {
    "name": "Sydney",
    "uid": "sydney",
    "country": "Australia",
    "region": {
      "latitude": -33.86833081055127,
      "longitude": 151.20795374306286,
      "latitudeDelta": 0.05,
      "longitudeDelta": 0.05
    }
  },
  {
    "name": "New York",
    "uid": "new-york",
    "country": "America United States USA",
    "region": {
      "latitude": 40.71159236311252,
      "longitude": -74.02230032573972,
      "latitudeDelta": 0.05,
      "longitudeDelta": 0.05
    }
  },
  {
    "name": "Los Angeles",
    "uid": "los-angeles",
    "country": "America United States USA",
    "region": {
      "latitude": 34.06100421714512,
      "longitude": -118.25660299440071,
      "latitudeDelta": 0.05,
      "longitudeDelta": 0.05
    }
  },
  {
    "name": "Tokyo",
    "uid": "tokyo",
    "country": "Japan",
    "region": {
      "latitude": 35.818910461468356,
      "longitude": 139.79645720350823,
      "latitudeDelta": 0.05,
      "longitudeDelta": 0.05
    }
  },
  {
    "name": "Melbourne",
    "uid": "melbourne",
    "country": "Australia",
    "region": {
      "latitude": -37.818998128621814,
      "longitude": 144.96230118209684,
      "latitudeDelta": 0.05,
      "longitudeDelta": 0.05
    }
  }
]
